{
  "type": "FeatureCollection",
  "generator": "overpass-ide",
  "copyright": "The data included in this document is from www.openstreetmap.org. The data is made available under ODbL.",
  "timestamp": "2021-03-08T11:01:43Z",
  "features": [
    {
      "type": "Feature",
      "properties": {
        "@id": "node/8983688",
        "sport": "swimming"
      },
      "geometry": {
        "type": "Point",
        "coordinates": [
          7.5553714,
          46.4877889
        ]
      },
      "id": "node/8983688"
    },
    {
      "type": "Feature",
      "properties": {
        "@id": "node/52200228",
        "amenity": "public_bath",
        "bath:open_air": "yes",
        "bath:type": "lake",
        "name": "Arenenberger Badi",
        "sport": "swimming"
      },
      "geometry": {
        "type": "Point",
        "coordinates": [
          9.0656653,
          47.6740707
        ]
      },
      "id": "node/52200228"
    },
    {
      "type": "Feature",
      "properties": {
        "@id": "node/52214648",
        "name": "Salensteiner Badi",
        "sport": "swimming"
      },
      "geometry": {
        "type": "Point",
        "coordinates": [
          9.0616574,
          47.6738261
        ]
      },
      "id": "node/52214648"
    },
    {
      "type": "Feature",
      "properties": {
        "@id": "node/156389426",
        "fee": "no",
        "female": "no",
        "leisure": "swimming_pool",
        "male": "yes",
        "name": "Männerbad Schanzengraben",
        "opening_hours": "Su-Th 11:00-19:00; Fr 11:00-18:30",
        "sport": "swimming",
        "wheelchair": "no"
      },
      "geometry": {
        "type": "Point",
        "coordinates": [
          8.5327028,
          47.3712203
        ]
      },
      "id": "node/156389426"
    },
    {
      "type": "Feature",
      "properties": {
        "@id": "node/236306218",
        "leisure": "water_park",
        "name": "Seebad Lattenberg",
        "sport": "swimming"
      },
      "geometry": {
        "type": "Point",
        "coordinates": [
          8.7129651,
          47.2412221
        ]
      },
      "id": "node/236306218"
    },
    {
      "type": "Feature",
      "properties": {
        "@id": "node/245374345",
        "amenity": "public_bath",
        "bath:type": "thermal",
        "name": "Thermalbad Schinznach Bad",
        "sport": "swimming",
        "website": "https://bad-schinznach.ch/"
      },
      "geometry": {
        "type": "Point",
        "coordinates": [
          8.1661262,
          47.4588102
        ]
      },
      "id": "node/245374345"
    },
    {
      "type": "Feature",
      "properties": {
        "@id": "node/246659357",
        "email": "hallenbad@schmerikon.ch",
        "leisure": "sports_centre",
        "name": "Hallen- und Seebad Schmerikon",
        "operator": "Gemeinde Schmerikon",
        "phone": "+41 55 282 33 66",
        "sport": "swimming",
        "website": "https://www.badi-schmerke.ch"
      },
      "geometry": {
        "type": "Point",
        "coordinates": [
          8.9489476,
          47.222334
        ]
      },
      "id": "node/246659357"
    },
    {
      "type": "Feature",
      "properties": {
        "@id": "node/250555108",
        "fee": "yes",
        "leisure": "sports_centre",
        "name": "Freibad Heuried",
        "opening_hours": "week 20-37 Mo-Su,PH 08:00-11:00, Mo-Su,PH 11:00-20:00 unknown \"bei gutem Wetter\"",
        "seasonal": "yes",
        "sport": "swimming"
      },
      "geometry": {
        "type": "Point",
        "coordinates": [
          8.5056612,
          47.3675001
        ]
      },
      "id": "node/250555108"
    },
    {
      "type": "Feature",
      "properties": {
        "@id": "node/251364449",
        "indoor": "yes",
        "leisure": "swimming_pool",
        "name": "Hallenbad Weinfelden",
        "opening_hours": "Mo-Fr 10:00-21:30; Sa-Su 10:00-17:30",
        "outdoor": "no",
        "public": "yes",
        "sport": "swimming",
        "website": "https://www.weinfelden.ch/leben/sportanlagen-unterkunft/hallenbad.html/277"
      },
      "geometry": {
        "type": "Point",
        "coordinates": [
          9.104563,
          47.5649841
        ]
      },
      "id": "node/251364449"
    },
    {
      "type": "Feature",
      "properties": {
        "@id": "node/251369010",
        "name": "Thurbad",
        "sport": "swimming",
        "website": "https://www.weinfelden.ch/xml_1/internet/de/application/d62/d69/f72.cfm"
      },
      "geometry": {
        "type": "Point",
        "coordinates": [
          9.1067279,
          47.5550419
        ]
      },
      "id": "node/251369010"
    },
    {
      "type": "Feature",
      "properties": {
        "@id": "node/252685734",
        "leisure": "swimming_pool",
        "name": "Hallenbad Aadorf",
        "opening_hours": "Mo-Fr 10:00-21:00; Tu 06:00-07:30,10:00-21:00; Th 06:00-21:00; Sa 12:00-17:00; Su 10:00-17:00",
        "sport": "swimming",
        "wheelchair": "no"
      },
      "geometry": {
        "type": "Point",
        "coordinates": [
          8.9047857,
          47.4938646
        ]
      },
      "id": "node/252685734"
    },
    {
      "type": "Feature",
      "properties": {
        "@id": "node/268477720",
        "amenity": "public_bath",
        "leisure": "swimming_area",
        "name": "Strandbad Hard (FKK)",
        "sport": "swimming",
        "water_park": "lido",
        "website": "https://www.hard-sport-freizeit.at/fkk-strand-hard/"
      },
      "geometry": {
        "type": "Point",
        "coordinates": [
          9.6676187,
          47.4921992
        ]
      },
      "id": "node/268477720"
    },
    {
      "type": "Feature",
      "properties": {
        "@id": "node/271986658",
        "leisure": "swimming_pool",
        "name": "Römerbad",
        "sport": "swimming",
        "website": "http://www.roemus.de/"
      },
      "geometry": {
        "type": "Point",
        "coordinates": [
          9.6858607,
          47.5437503
        ]
      },
      "id": "node/271986658"
    },
    {
      "type": "Feature",
      "properties": {
        "@id": "node/272587011",
        "name": "Männerbad",
        "sport": "swimming"
      },
      "geometry": {
        "type": "Point",
        "coordinates": [
          9.643303,
          47.5628172
        ]
      },
      "id": "node/272587011"
    },
    {
      "type": "Feature",
      "properties": {
        "@id": "node/274508614",
        "leisure": "swimming_area",
        "name": "Naturbad Freibergsee",
        "sport": "swimming"
      },
      "geometry": {
        "type": "Point",
        "coordinates": [
          10.2702486,
          47.3822726
        ]
      },
      "id": "node/274508614"
    },
    {
      "type": "Feature",
      "properties": {
        "@id": "node/274711443",
        "sport": "swimming"
      },
      "geometry": {
        "type": "Point",
        "coordinates": [
          9.550468,
          47.5877106
        ]
      },
      "id": "node/274711443"
    },
    {
      "type": "Feature",
      "properties": {
        "@id": "node/276579260",
        "leisure": "water_park",
        "name": "Strandbad Brienz",
        "sport": "swimming"
      },
      "geometry": {
        "type": "Point",
        "coordinates": [
          8.0468443,
          46.7519117
        ]
      },
      "id": "node/276579260"
    },
    {
      "type": "Feature",
      "properties": {
        "@id": "node/277629858",
        "name": "Strandbad Mülehorn",
        "sport": "swimming",
        "water_park": "lake"
      },
      "geometry": {
        "type": "Point",
        "coordinates": [
          9.1748644,
          47.1179366
        ]
      },
      "id": "node/277629858"
    },
    {
      "type": "Feature",
      "properties": {
        "@id": "node/278205038",
        "sport": "swimming"
      },
      "geometry": {
        "type": "Point",
        "coordinates": [
          9.1092327,
          47.1281227
        ]
      },
      "id": "node/278205038"
    },
    {
      "type": "Feature",
      "properties": {
        "@id": "node/280801082",
        "leisure": "common",
        "sport": "swimming"
      },
      "geometry": {
        "type": "Point",
        "coordinates": [
          8.6897851,
          47.2081287
        ]
      },
      "id": "node/280801082"
    },
    {
      "type": "Feature",
      "properties": {
        "@id": "node/282210010",
        "leisure": "park",
        "name": "Golzernsee",
        "sport": "swimming"
      },
      "geometry": {
        "type": "Point",
        "coordinates": [
          8.7379286,
          46.7758893
        ]
      },
      "id": "node/282210010"
    },
    {
      "type": "Feature",
      "properties": {
        "@id": "node/283180070",
        "name": "Piscine de la Sarraz",
        "sport": "swimming"
      },
      "geometry": {
        "type": "Point",
        "coordinates": [
          6.5090538,
          46.6616387
        ]
      },
      "id": "node/283180070"
    },
    {
      "type": "Feature",
      "properties": {
        "@id": "node/284542413",
        "created_by": "Potlatch 0.10b",
        "name": "Naturschwimmbad",
        "sport": "swimming"
      },
      "geometry": {
        "type": "Point",
        "coordinates": [
          7.5405741,
          47.4022746
        ]
      },
      "id": "node/284542413"
    },
    {
      "type": "Feature",
      "properties": {
        "@id": "node/284802595",
        "sport": "swimming"
      },
      "geometry": {
        "type": "Point",
        "coordinates": [
          9.8613565,
          47.8367485
        ]
      },
      "id": "node/284802595"
    },
    {
      "type": "Feature",
      "properties": {
        "@id": "node/284834883",
        "sport": "swimming"
      },
      "geometry": {
        "type": "Point",
        "coordinates": [
          9.8269604,
          47.8374087
        ]
      },
      "id": "node/284834883"
    },
    {
      "type": "Feature",
      "properties": {
        "@id": "node/284926866",
        "sport": "swimming"
      },
      "geometry": {
        "type": "Point",
        "coordinates": [
          6.0817205,
          46.2309953
        ]
      },
      "id": "node/284926866"
    },
    {
      "type": "Feature",
      "properties": {
        "@id": "node/286488425",
        "name": "Moorfreibad",
        "sport": "swimming"
      },
      "geometry": {
        "type": "Point",
        "coordinates": [
          10.0050069,
          47.7820353
        ]
      },
      "id": "node/286488425"
    },
    {
      "type": "Feature",
      "properties": {
        "@id": "node/289446090",
        "addr:city": "Lugano",
        "leisure": "beach_resort",
        "name": "Lido Riva Caccia",
        "sport": "swimming"
      },
      "geometry": {
        "type": "Point",
        "coordinates": [
          8.9470495,
          45.9958063
        ]
      },
      "id": "node/289446090"
    },
    {
      "type": "Feature",
      "properties": {
        "@id": "node/290193481",
        "name": "Geschina",
        "sport": "swimming"
      },
      "geometry": {
        "type": "Point",
        "coordinates": [
          7.992585,
          46.3120275
        ]
      },
      "id": "node/290193481"
    },
    {
      "type": "Feature",
      "properties": {
        "@id": "node/290747966",
        "name": "Naturschwimmbad Haldenwang",
        "sport": "swimming"
      },
      "geometry": {
        "type": "Point",
        "coordinates": [
          10.355788,
          47.7908894
        ]
      },
      "id": "node/290747966"
    },
    {
      "type": "Feature",
      "properties": {
        "@id": "node/292039364",
        "name": "Hörnle",
        "note": "Strandbad",
        "sport": "swimming"
      },
      "geometry": {
        "type": "Point",
        "coordinates": [
          9.653636,
          47.4925212
        ]
      },
      "id": "node/292039364"
    },
    {
      "type": "Feature",
      "properties": {
        "@id": "node/292594143",
        "name": "Sonnenberg",
        "sport": "swimming"
      },
      "geometry": {
        "type": "Point",
        "coordinates": [
          8.3994152,
          46.8218986
        ]
      },
      "id": "node/292594143"
    },
    {
      "type": "Feature",
      "properties": {
        "@id": "node/297986369",
        "name": "Rothuus",
        "sport": "swimming"
      },
      "geometry": {
        "type": "Point",
        "coordinates": [
          8.680293,
          47.2253174
        ]
      },
      "id": "node/297986369"
    },
    {
      "type": "Feature",
      "properties": {
        "@id": "node/300554222",
        "amenity": "pub",
        "leisure": "sports_centre",
        "name": "Sportzentrum",
        "source": "survey",
        "sport": "swimming",
        "tourism": "information"
      },
      "geometry": {
        "type": "Point",
        "coordinates": [
          8.0354669,
          46.6233606
        ]
      },
      "id": "node/300554222"
    },
    {
      "type": "Feature",
      "properties": {
        "@id": "node/304646121",
        "access": "permissive",
        "indoor": "yes",
        "leisure": "swimming_pool",
        "name": "Schwimmbad Schulhaus Zihl",
        "sport": "swimming",
        "wheelchair": "no"
      },
      "geometry": {
        "type": "Point",
        "coordinates": [
          8.4331633,
          47.4597512
        ]
      },
      "id": "node/304646121"
    },
    {
      "type": "Feature",
      "properties": {
        "@id": "node/305535445",
        "covered": "no",
        "leisure": "swimming_area",
        "sport": "swimming"
      },
      "geometry": {
        "type": "Point",
        "coordinates": [
          9.8788977,
          47.7970793
        ]
      },
      "id": "node/305535445"
    },
    {
      "type": "Feature",
      "properties": {
        "@id": "node/305535446",
        "name": "Badestrand Stockweiher",
        "sport": "swimming"
      },
      "geometry": {
        "type": "Point",
        "coordinates": [
          9.8322661,
          47.8223304
        ]
      },
      "id": "node/305535446"
    },
    {
      "type": "Feature",
      "properties": {
        "@id": "node/308787011",
        "created_by": "Potlatch 0.10f",
        "description": "Schwimmen Sauna",
        "name": "Fitwell Park",
        "sport": "swimming"
      },
      "geometry": {
        "type": "Point",
        "coordinates": [
          8.8464528,
          47.732548
        ]
      },
      "id": "node/308787011"
    },
    {
      "type": "Feature",
      "properties": {
        "@id": "node/309012289",
        "leisure": "water_park",
        "name": "Strandbad Ludwigshafen",
        "sport": "swimming",
        "water_park": "lake"
      },
      "geometry": {
        "type": "Point",
        "coordinates": [
          9.0631603,
          47.8142731
        ]
      },
      "id": "node/309012289"
    },
    {
      "type": "Feature",
      "properties": {
        "@id": "node/310951566",
        "addr:city": "St. Margrethen",
        "addr:housenumber": "2",
        "addr:postcode": "9430",
        "addr:street": "Walzenhauserstrasse",
        "building": "public",
        "fee": "yes",
        "leisure": "sports_centre",
        "name": "Mineralheilbad St. Margrethen",
        "opening_hours": "Badewelt: Täglich 08.00 – 22.00 Uhr, Freitag 08.00 – 23.00 Uhr; Saunawelt: Täglich 10.00 – 22.00 Uhr, Freitag 10.00 – 23.00 Uhr",
        "payment:account_cards": "yes",
        "payment:cash": "yes",
        "payment:credit_cards": "yes",
        "payment:debit_cards": "yes",
        "sport": "swimming",
        "website": "http://www.mineralheilbad.ch"
      },
      "geometry": {
        "type": "Point",
        "coordinates": [
          9.6350401,
          47.4508275
        ]
      },
      "id": "node/310951566"
    },
    {
      "type": "Feature",
      "properties": {
        "@id": "node/318368827",
        "name": "Luxburg",
        "sport": "swimming"
      },
      "geometry": {
        "type": "Point",
        "coordinates": [
          9.3863444,
          47.5500237
        ]
      },
      "id": "node/318368827"
    },
    {
      "type": "Feature",
      "properties": {
        "@id": "node/320760630",
        "leisure": "swimming_pool",
        "sport": "swimming"
      },
      "geometry": {
        "type": "Point",
        "coordinates": [
          10.5493564,
          46.6832288
        ]
      },
      "id": "node/320760630"
    },
    {
      "type": "Feature",
      "properties": {
        "@id": "node/321363326",
        "addr:city": "Burgdorf",
        "addr:housenumber": "15c",
        "addr:postcode": "3400",
        "addr:street": "Sägegasse",
        "charge": "7.00 CHF/person;6.00 CHF/pupil;6.00 CHF/student;6.00 CHF/apprentice;6.00 CHF/pensioner;5.00 CHF/kids 6-16;0.00 CHF/kids <6",
        "email": "info@hallenbad-burgdorf.ch",
        "fee": "yes",
        "leisure": "sports_centre",
        "name": "Hallenbad Burgdorf",
        "opening_hours": "Mo 09:00-21:30; Tu 06:00-21:30; We-Th 08:00-21:30; Fr 06:00 - 21:30; Sa 08:00-19:00; So 08:00-18:00",
        "sport": "swimming",
        "website": "https://www.hallenbad-burgdorf.ch"
      },
      "geometry": {
        "type": "Point",
        "coordinates": [
          7.6314258,
          47.0556041
        ]
      },
      "id": "node/321363326"
    },
    {
      "type": "Feature",
      "properties": {
        "@id": "node/331337213",
        "fee": "yes",
        "leisure": "sports_centre",
        "location": "indoor",
        "name": "Hallenbad Tiefencastel",
        "sport": "swimming"
      },
      "geometry": {
        "type": "Point",
        "coordinates": [
          9.5785393,
          46.660192
        ]
      },
      "id": "node/331337213"
    },
    {
      "type": "Feature",
      "properties": {
        "@id": "node/337932779",
        "leisure": "water_park",
        "name": "Strandbad",
        "sport": "swimming",
        "water_park": "lake;outdoor"
      },
      "geometry": {
        "type": "Point",
        "coordinates": [
          9.8871981,
          46.8652021
        ]
      },
      "id": "node/337932779"
    },
    {
      "type": "Feature",
      "properties": {
        "@id": "node/340438827",
        "leisure": "sports_centre",
        "name": "Piscine de la Foge",
        "sport": "swimming"
      },
      "geometry": {
        "type": "Point",
        "coordinates": [
          6.8969853,
          46.4504543
        ]
      },
      "id": "node/340438827"
    },
    {
      "type": "Feature",
      "properties": {
        "@id": "node/353713650",
        "name": "Plage municipale de Sévrier",
        "natural": "beach",
        "source": "cadastre-dgi-fr source : Direction Générale des Impôts - Cadastre. Mise à jour : 2009",
        "sport": "swimming",
        "surface": "sand"
      },
      "geometry": {
        "type": "Point",
        "coordinates": [
          6.1443031,
          45.862748
        ]
      },
      "id": "node/353713650"
    },
    {
      "type": "Feature",
      "properties": {
        "@id": "node/353772954",
        "source": "cadastre-dgi-fr source : Direction Générale des Impôts - Cadastre. Mise à jour : 2009",
        "sport": "swimming"
      },
      "geometry": {
        "type": "Point",
        "coordinates": [
          6.1469493,
          45.8562496
        ]
      },
      "id": "node/353772954"
    },
    {
      "type": "Feature",
      "properties": {
        "@id": "node/354615091",
        "access": "yes",
        "description": "Flussbad",
        "fee": "no",
        "leisure": "swimming_pool",
        "location": "outdoor",
        "name": "Oberer Letten",
        "sport": "swimming",
        "wheelchair": "no"
      },
      "geometry": {
        "type": "Point",
        "coordinates": [
          8.5351985,
          47.3852513
        ]
      },
      "id": "node/354615091"
    },
    {
      "type": "Feature",
      "properties": {
        "@id": "node/366497209",
        "contact:facebook": "https://www.facebook.com/nautiquevalmorteau/",
        "email": "accueil.morteau@vert-marine.com",
        "leisure": "sports_centre",
        "name": "Piscine Centre Nautique du Val de Morteau",
        "opening_hours:url": "https://www.vert-marine.info/centrenautiqueduvaldemorteau/horaires/",
        "phone": "+33 3 81 67 25 48",
        "ref:FR:SIRET": "83501054700015",
        "sauna": "yes",
        "sport": "swimming",
        "website": "https://www.vert-marine.info/centrenautiqueduvaldemorteau/"
      },
      "geometry": {
        "type": "Point",
        "coordinates": [
          6.6383607,
          47.0808746
        ]
      },
      "id": "node/366497209"
    },
    {
      "type": "Feature",
      "properties": {
        "@id": "node/367083171",
        "name": "Strandbad",
        "sport": "swimming"
      },
      "geometry": {
        "type": "Point",
        "coordinates": [
          9.851368,
          46.8151955
        ]
      },
      "id": "node/367083171"
    },
    {
      "type": "Feature",
      "properties": {
        "@id": "node/369052609",
        "name": "Lido di Lugano",
        "sport": "swimming",
        "website": "https://www.lugano.ch/cultura-tempo-libero/sport/lidi-e-piscine/lido-di-lugano.html"
      },
      "geometry": {
        "type": "Point",
        "coordinates": [
          8.9631883,
          46.004619
        ]
      },
      "id": "node/369052609"
    },
    {
      "type": "Feature",
      "properties": {
        "@id": "node/370635140",
        "sport": "swimming"
      },
      "geometry": {
        "type": "Point",
        "coordinates": [
          8.3268935,
          47.8434265
        ]
      },
      "id": "node/370635140"
    },
    {
      "type": "Feature",
      "properties": {
        "@id": "node/373736746",
        "addr:city": "Biel/Bienne",
        "addr:housenumber": "60",
        "addr:postcode": "2503",
        "addr:street": "Zentralstrasse",
        "addr:street:fr": "Rue Centrale",
        "alt_name": "CTS Aqua",
        "contact:email": "info@ctsbiel-bienne.ch",
        "contact:phone": "+41 32 329 19 50",
        "contact:website": "http://www.ctsbiel-bienne.ch/aqua/",
        "fee": "yes",
        "leisure": "sports_centre",
        "length": "25 m",
        "name": "Palais des Congrès CTS",
        "name:de": "Hallenbad CTS",
        "name:fr": "Piscine couverte CTS",
        "opening_hours": "Mo-Tu,Th 07:00-19:00; We,Fr 07:00-21:00; Sa 08:00-18:00; Su 08:00-17:00",
        "sport": "swimming",
        "toilets": "yes",
        "toilets:wheelchair": "designated",
        "wheelchair": "yes"
      },
      "geometry": {
        "type": "Point",
        "coordinates": [
          7.2481851,
          47.1349291
        ]
      },
      "id": "node/373736746"
    },
    {
      "type": "Feature",
      "properties": {
        "@id": "node/376956407",
        "fee": "no",
        "leisure": "swimming_area",
        "name": "Badi Seegräben",
        "sport": "swimming"
      },
      "geometry": {
        "type": "Point",
        "coordinates": [
          8.774729,
          47.3457177
        ]
      },
      "id": "node/376956407"
    },
    {
      "type": "Feature",
      "properties": {
        "@id": "node/381285162",
        "leisure": "sports_centre",
        "name": "Freibad Waldenburg",
        "sport": "swimming",
        "website": "https://www.sportmap-bl.ch/wassersport/freibaeder/freibad-waldenburg"
      },
      "geometry": {
        "type": "Point",
        "coordinates": [
          7.7465703,
          47.3741873
        ]
      },
      "id": "node/381285162"
    },
    {
      "type": "Feature",
      "properties": {
        "@id": "node/388470982",
        "access": "yes",
        "covered": "yes",
        "leisure": "swimming_pool",
        "level": "-1",
        "location": "indoor",
        "name": "Piscine Municipale",
        "sport": "swimming"
      },
      "geometry": {
        "type": "Point",
        "coordinates": [
          6.11927,
          46.1676753
        ]
      },
      "id": "node/388470982"
    },
    {
      "type": "Feature",
      "properties": {
        "@id": "node/392411386",
        "leisure": "water_park",
        "name": "Lido di Caslano",
        "sport": "swimming"
      },
      "geometry": {
        "type": "Point",
        "coordinates": [
          8.887163,
          45.9711862
        ]
      },
      "id": "node/392411386"
    },
    {
      "type": "Feature",
      "properties": {
        "@id": "node/401425164",
        "leisure": "recreation_ground",
        "name": "Malereck",
        "sport": "swimming"
      },
      "geometry": {
        "type": "Point",
        "coordinates": [
          9.5494491,
          47.5892121
        ]
      },
      "id": "node/401425164"
    },
    {
      "type": "Feature",
      "properties": {
        "@id": "node/414178534",
        "name": "Schlosssee Freibad",
        "sport": "swimming",
        "wikidata": "Q2244699",
        "wikipedia": "de:Schlosssee (Salem)"
      },
      "geometry": {
        "type": "Point",
        "coordinates": [
          9.290956,
          47.7690454
        ]
      },
      "id": "node/414178534"
    },
    {
      "type": "Feature",
      "properties": {
        "@id": "node/414198372",
        "sport": "swimming"
      },
      "geometry": {
        "type": "Point",
        "coordinates": [
          8.8140148,
          47.6135549
        ]
      },
      "id": "node/414198372"
    },
    {
      "type": "Feature",
      "properties": {
        "@id": "node/418419058",
        "source": "cadastre-dgi-fr source : Direction Générale des Impôts - Cadastre ; mise à jour : 2008",
        "sport": "swimming"
      },
      "geometry": {
        "type": "Point",
        "coordinates": [
          6.1424518,
          45.9023608
        ]
      },
      "id": "node/418419058"
    },
    {
      "type": "Feature",
      "properties": {
        "@id": "node/419317023",
        "sport": "swimming"
      },
      "geometry": {
        "type": "Point",
        "coordinates": [
          7.7354032,
          46.7001628
        ]
      },
      "id": "node/419317023"
    },
    {
      "type": "Feature",
      "properties": {
        "@id": "node/420351945",
        "sport": "swimming"
      },
      "geometry": {
        "type": "Point",
        "coordinates": [
          8.3908658,
          47.1479361
        ]
      },
      "id": "node/420351945"
    },
    {
      "type": "Feature",
      "properties": {
        "@id": "node/434348255",
        "leisure": "swimming_area",
        "name": "Bagno pubblico",
        "sport": "swimming"
      },
      "geometry": {
        "type": "Point",
        "coordinates": [
          8.8035961,
          46.1567001
        ]
      },
      "id": "node/434348255"
    },
    {
      "type": "Feature",
      "properties": {
        "@id": "node/434348309",
        "fee": "no",
        "leisure": "water_park",
        "name": "Bagno Pubblico",
        "sport": "swimming"
      },
      "geometry": {
        "type": "Point",
        "coordinates": [
          8.7793329,
          46.1479701
        ]
      },
      "id": "node/434348309"
    },
    {
      "type": "Feature",
      "properties": {
        "@id": "node/442673736",
        "name": "Plage de Veyrier-du-Lac",
        "source": "cadastre-dgi-fr source : Direction Générale des Impôts - Cadastre ; mise à jour : 2008",
        "sport": "swimming"
      },
      "geometry": {
        "type": "Point",
        "coordinates": [
          6.1746472,
          45.8788217
        ]
      },
      "id": "node/442673736"
    },
    {
      "type": "Feature",
      "properties": {
        "@id": "node/443125388",
        "name": "Plage de Menthon-Saint-Bernard",
        "natural": "beach",
        "source": "cadastre-dgi-fr source : Direction Générale des Impôts - Cadastre ; mise à jour : 2008",
        "sport": "swimming"
      },
      "geometry": {
        "type": "Point",
        "coordinates": [
          6.185909,
          45.863859
        ]
      },
      "id": "node/443125388"
    },
    {
      "type": "Feature",
      "properties": {
        "@id": "node/443422689",
        "leisure": "swimming_pool",
        "name": "Bogn d'aua da sal",
        "name:de": "Solebad",
        "name:en": "Brine Bath",
        "name:fr": "Bain d'eau salé",
        "name:rm": "Bogn d'aua da sal",
        "name:ru": "солёная ва́нна",
        "name:zh": "盐水浴",
        "sport": "swimming"
      },
      "geometry": {
        "type": "Point",
        "coordinates": [
          9.7626763,
          46.4280337
        ]
      },
      "id": "node/443422689"
    },
    {
      "type": "Feature",
      "properties": {
        "@id": "node/450130915",
        "sport": "swimming"
      },
      "geometry": {
        "type": "Point",
        "coordinates": [
          5.9096416,
          46.6410957
        ]
      },
      "id": "node/450130915"
    },
    {
      "type": "Feature",
      "properties": {
        "@id": "node/450999611",
        "leisure": "pitch",
        "sport": "swimming"
      },
      "geometry": {
        "type": "Point",
        "coordinates": [
          7.3626411,
          47.048503
        ]
      },
      "id": "node/450999611"
    },
    {
      "type": "Feature",
      "properties": {
        "@id": "node/456035691",
        "sport": "swimming"
      },
      "geometry": {
        "type": "Point",
        "coordinates": [
          7.1568996,
          46.3467202
        ]
      },
      "id": "node/456035691"
    },
    {
      "type": "Feature",
      "properties": {
        "@id": "node/456036314",
        "access": "yes",
        "bath:open_air": "yes",
        "contact:email": "badi-teufen@bluewin.ch",
        "contact:phone": "+41 71 333 55 03",
        "contact:website": "http://www.teufen.ch/xml_1/internet/de/application/d361/d120/f121.cfm",
        "fee": "yes",
        "leisure": "sports_centre",
        "name": "Freibad Teufen",
        "shower": "yes",
        "sport": "swimming",
        "water_park": "outdoor",
        "website": "http://www.teufen.ch/xml_1/internet/de/application/d361/d120/f121.cfm"
      },
      "geometry": {
        "type": "Point",
        "coordinates": [
          9.3938663,
          47.3834052
        ]
      },
      "id": "node/456036314"
    },
    {
      "type": "Feature",
      "properties": {
        "@id": "node/459498542",
        "name": "Plage de Talloires",
        "source": "cadastre-dgi-fr source : Direction Générale des Impôts - Cadastre ; mise à jour : 2008",
        "sport": "swimming"
      },
      "geometry": {
        "type": "Point",
        "coordinates": [
          6.2122447,
          45.8375203
        ]
      },
      "id": "node/459498542"
    },
    {
      "type": "Feature",
      "properties": {
        "@id": "node/466242040",
        "description": "Plage payante uniquement l'été",
        "name": "Plage d'Angon",
        "source": "cadastre-dgi-fr source : Direction Générale des Impôts - Cadastre;mise à jour : 2008",
        "sport": "swimming"
      },
      "geometry": {
        "type": "Point",
        "coordinates": [
          6.2215062,
          45.8231441
        ]
      },
      "id": "node/466242040"
    },
    {
      "type": "Feature",
      "properties": {
        "@id": "node/470227999",
        "leisure": "sports_centre",
        "name": "Vevey-Corseaux-Plage",
        "sport": "swimming"
      },
      "geometry": {
        "type": "Point",
        "coordinates": [
          6.8321333,
          46.4676048
        ]
      },
      "id": "node/470227999"
    },
    {
      "type": "Feature",
      "properties": {
        "@id": "node/470320509",
        "name": "Entrée Piscine",
        "sport": "swimming"
      },
      "geometry": {
        "type": "Point",
        "coordinates": [
          6.7577031,
          47.0506736
        ]
      },
      "id": "node/470320509"
    },
    {
      "type": "Feature",
      "properties": {
        "@id": "node/471582857",
        "sport": "swimming"
      },
      "geometry": {
        "type": "Point",
        "coordinates": [
          7.7301441,
          47.5346858
        ]
      },
      "id": "node/471582857"
    },
    {
      "type": "Feature",
      "properties": {
        "@id": "node/473134060",
        "natural": "beach",
        "sport": "swimming"
      },
      "geometry": {
        "type": "Point",
        "coordinates": [
          6.8837022,
          46.9765039
        ]
      },
      "id": "node/473134060"
    },
    {
      "type": "Feature",
      "properties": {
        "@id": "node/484262897",
        "sport": "swimming"
      },
      "geometry": {
        "type": "Point",
        "coordinates": [
          9.7478119,
          47.5239557
        ]
      },
      "id": "node/484262897"
    },
    {
      "type": "Feature",
      "properties": {
        "@id": "node/484262898",
        "sport": "swimming"
      },
      "geometry": {
        "type": "Point",
        "coordinates": [
          9.749741,
          47.5224626
        ]
      },
      "id": "node/484262898"
    },
    {
      "type": "Feature",
      "properties": {
        "@id": "node/499570045",
        "leisure": "sports_centre",
        "sport": "swimming"
      },
      "geometry": {
        "type": "Point",
        "coordinates": [
          6.9425346,
          46.8232675
        ]
      },
      "id": "node/499570045"
    },
    {
      "type": "Feature",
      "properties": {
        "@id": "node/523841902",
        "covered": "no",
        "leisure": "swimming_pool",
        "source": "survey",
        "sport": "swimming"
      },
      "geometry": {
        "type": "Point",
        "coordinates": [
          8.2462725,
          46.4669937
        ]
      },
      "id": "node/523841902"
    },
    {
      "type": "Feature",
      "properties": {
        "@id": "node/528412961",
        "name": "Bains Victoria",
        "operator": "Commune de Finhaut",
        "sport": "swimming"
      },
      "geometry": {
        "type": "Point",
        "coordinates": [
          6.9760941,
          46.0835118
        ]
      },
      "id": "node/528412961"
    },
    {
      "type": "Feature",
      "properties": {
        "@id": "node/533753294",
        "leisure": "swimming_pool",
        "name": "Eienwäldli",
        "sport": "swimming"
      },
      "geometry": {
        "type": "Point",
        "coordinates": [
          8.4226729,
          46.809767
        ]
      },
      "id": "node/533753294"
    },
    {
      "type": "Feature",
      "properties": {
        "@id": "node/535402171",
        "leisure": "sports_centre",
        "name": "Badi Thusis",
        "sport": "swimming"
      },
      "geometry": {
        "type": "Point",
        "coordinates": [
          9.4450857,
          46.7032212
        ]
      },
      "id": "node/535402171"
    },
    {
      "type": "Feature",
      "properties": {
        "@id": "node/548991909",
        "leisure": "sports_centre",
        "name": "Hallenbad Balgach",
        "sport": "swimming"
      },
      "geometry": {
        "type": "Point",
        "coordinates": [
          9.6112604,
          47.4016041
        ]
      },
      "id": "node/548991909"
    },
    {
      "type": "Feature",
      "properties": {
        "@id": "node/572632269",
        "fee": "no",
        "name": "Männerbad Boniswil",
        "sport": "swimming"
      },
      "geometry": {
        "type": "Point",
        "coordinates": [
          8.1967726,
          47.3211636
        ]
      },
      "id": "node/572632269"
    },
    {
      "type": "Feature",
      "properties": {
        "@id": "node/601493716",
        "name": "Picine couverte",
        "sport": "swimming"
      },
      "geometry": {
        "type": "Point",
        "coordinates": [
          7.1585809,
          46.3493366
        ]
      },
      "id": "node/601493716"
    },
    {
      "type": "Feature",
      "properties": {
        "@id": "node/619209389",
        "name": "Collège de Crêt du Chène",
        "sport": "swimming"
      },
      "geometry": {
        "type": "Point",
        "coordinates": [
          6.961091,
          47.0075807
        ]
      },
      "id": "node/619209389"
    },
    {
      "type": "Feature",
      "properties": {
        "@id": "node/631879657",
        "amenity": "public_bath",
        "bath:open_air": "yes",
        "bath:sand_bath": "yes",
        "bath:type": "lake",
        "name": "Badeinseln",
        "sport": "swimming"
      },
      "geometry": {
        "type": "Point",
        "coordinates": [
          8.6071003,
          46.8944453
        ]
      },
      "id": "node/631879657"
    },
    {
      "type": "Feature",
      "properties": {
        "@id": "node/654054494",
        "name": "Strandbad Bad Schachen",
        "sport": "swimming",
        "water_park": "lake"
      },
      "geometry": {
        "type": "Point",
        "coordinates": [
          9.6633384,
          47.5578452
        ]
      },
      "id": "node/654054494"
    },
    {
      "type": "Feature",
      "properties": {
        "@id": "node/663870294",
        "leisure": "sports_centre",
        "name": "Strandbad Käpfnach",
        "source": "www.dive-links.com",
        "sport": "swimming",
        "verified": "no, please check and del this tag",
        "website": "http://www.dive-links.com/tauchplatz.php?id=2614"
      },
      "geometry": {
        "type": "Point",
        "coordinates": [
          8.6172308,
          47.2552397
        ]
      },
      "id": "node/663870294"
    },
    {
      "type": "Feature",
      "properties": {
        "@id": "node/663870302",
        "addr:city": "Meilen",
        "addr:housenumber": "720",
        "addr:postcode": "8706",
        "addr:street": "Seestrasse",
        "fee": "yes",
        "leisure": "sports_centre",
        "name": "Strandbad Meilen",
        "sport": "swimming",
        "website": "https://www.meilen.ch/strandbaeder/9953"
      },
      "geometry": {
        "type": "Point",
        "coordinates": [
          8.6485436,
          47.2674573
        ]
      },
      "id": "node/663870302"
    },
    {
      "type": "Feature",
      "properties": {
        "@id": "node/663870351",
        "sport": "swimming"
      },
      "geometry": {
        "type": "Point",
        "coordinates": [
          9.1199831,
          47.1392855
        ]
      },
      "id": "node/663870351"
    },
    {
      "type": "Feature",
      "properties": {
        "@id": "node/682100859",
        "sport": "swimming"
      },
      "geometry": {
        "type": "Point",
        "coordinates": [
          7.2609718,
          46.4949517
        ]
      },
      "id": "node/682100859"
    },
    {
      "type": "Feature",
      "properties": {
        "@id": "node/689189078",
        "leisure": "pitch",
        "name": "Schwimmbad",
        "sport": "swimming"
      },
      "geometry": {
        "type": "Point",
        "coordinates": [
          9.5756215,
          47.318708
        ]
      },
      "id": "node/689189078"
    },
    {
      "type": "Feature",
      "properties": {
        "@id": "node/702427891",
        "indoor": "yes",
        "leisure": "sports_centre",
        "name": "Hallenbad Grenchen",
        "sport": "swimming"
      },
      "geometry": {
        "type": "Point",
        "coordinates": [
          7.3928395,
          47.1927554
        ]
      },
      "id": "node/702427891"
    },
    {
      "type": "Feature",
      "properties": {
        "@id": "node/748982445",
        "addr:city": "Stein am Rhein",
        "addr:country": "CH",
        "addr:housenumber": "28",
        "addr:postcode": "8260",
        "addr:street": "Espiweg",
        "name": "Schwimmbad Espi",
        "phone": "+41 52 741 43 37",
        "sport": "swimming"
      },
      "geometry": {
        "type": "Point",
        "coordinates": [
          8.8562724,
          47.6583417
        ]
      },
      "id": "node/748982445"
    },
    {
      "type": "Feature",
      "properties": {
        "@id": "node/800280944",
        "name": "Hallenbad",
        "sport": "swimming"
      },
      "geometry": {
        "type": "Point",
        "coordinates": [
          7.2135033,
          47.1382419
        ]
      },
      "id": "node/800280944"
    },
    {
      "type": "Feature",
      "properties": {
        "@id": "node/804894379",
        "name": "Centre Sportif",
        "opening_hours": "Mo off; Tu 13:30-21:00; We 13:30-22:00; Th 13:30-21:00; Fr 13:30-18:30; Sa 10:00-18:30; Su 09:00-13:00",
        "phone": "+41 24 486 22 65",
        "sport": "swimming"
      },
      "geometry": {
        "type": "Point",
        "coordinates": [
          7.0069197,
          46.2168584
        ]
      },
      "id": "node/804894379"
    },
    {
      "type": "Feature",
      "properties": {
        "@id": "node/822891725",
        "sport": "swimming"
      },
      "geometry": {
        "type": "Point",
        "coordinates": [
          9.0066164,
          46.0070102
        ]
      },
      "id": "node/822891725"
    },
    {
      "type": "Feature",
      "properties": {
        "@id": "node/833352423",
        "sport": "swimming"
      },
      "geometry": {
        "type": "Point",
        "coordinates": [
          8.9953796,
          46.0039215
        ]
      },
      "id": "node/833352423"
    },
    {
      "type": "Feature",
      "properties": {
        "@id": "node/846297621",
        "leisure": "sports_centre",
        "name": "École Liotard",
        "sport": "swimming"
      },
      "geometry": {
        "type": "Point",
        "coordinates": [
          6.1276188,
          46.2140433
        ]
      },
      "id": "node/846297621"
    },
    {
      "type": "Feature",
      "properties": {
        "@id": "node/847535973",
        "leisure": "sports_centre",
        "sport": "swimming"
      },
      "geometry": {
        "type": "Point",
        "coordinates": [
          10.0606302,
          46.3251212
        ]
      },
      "id": "node/847535973"
    },
    {
      "type": "Feature",
      "properties": {
        "@id": "node/854380334",
        "name": "Schwimmbad Melchnau",
        "sport": "swimming"
      },
      "geometry": {
        "type": "Point",
        "coordinates": [
          7.8541997,
          47.1743941
        ]
      },
      "id": "node/854380334"
    },
    {
      "type": "Feature",
      "properties": {
        "@id": "node/861183411",
        "fee": "no",
        "name": "Frauenbad Boniswil",
        "sport": "swimming"
      },
      "geometry": {
        "type": "Point",
        "coordinates": [
          8.1963867,
          47.3211798
        ]
      },
      "id": "node/861183411"
    },
    {
      "type": "Feature",
      "properties": {
        "@id": "node/861225893",
        "sport": "swimming"
      },
      "geometry": {
        "type": "Point",
        "coordinates": [
          8.7315363,
          46.0923977
        ]
      },
      "id": "node/861225893"
    },
    {
      "type": "Feature",
      "properties": {
        "@id": "node/862879307",
        "sport": "swimming"
      },
      "geometry": {
        "type": "Point",
        "coordinates": [
          9.1061031,
          47.1337391
        ]
      },
      "id": "node/862879307"
    },
    {
      "type": "Feature",
      "properties": {
        "@id": "node/864641279",
        "building": "yes",
        "name": "Familienbad",
        "sport": "swimming"
      },
      "geometry": {
        "type": "Point",
        "coordinates": [
          10.0952734,
          46.6988378
        ]
      },
      "id": "node/864641279"
    },
    {
      "type": "Feature",
      "properties": {
        "@id": "node/879187041",
        "leisure": "park",
        "name": "Egger Badi",
        "opening_hours:covid19": "closed",
        "sport": "swimming"
      },
      "geometry": {
        "type": "Point",
        "coordinates": [
          8.7892026,
          47.1510161
        ]
      },
      "id": "node/879187041"
    },
    {
      "type": "Feature",
      "properties": {
        "@id": "node/903366896",
        "addr:city": "Pratteln",
        "addr:country": "CH",
        "addr:housenumber": "57",
        "addr:postcode": "4133",
        "addr:street": "Hardstrasse",
        "email": "info@aquabasilea.ch",
        "fax": "+41 61 826 24 00",
        "leisure": "water_park",
        "name": "Aquabasilea",
        "opening_hours:url": "http://www.aquabasilea.ch/oeffnungszeiten.html",
        "phone": "+41 61 826 24 24",
        "sport": "swimming",
        "website": "http://www.aquabasilea.ch"
      },
      "geometry": {
        "type": "Point",
        "coordinates": [
          7.6811895,
          47.5242339
        ]
      },
      "id": "node/903366896"
    },
    {
      "type": "Feature",
      "properties": {
        "@id": "node/990918554",
        "name": "Piscine de Tivoli",
        "sport": "swimming"
      },
      "geometry": {
        "type": "Point",
        "coordinates": [
          6.1243051,
          46.1954242
        ]
      },
      "id": "node/990918554"
    },
    {
      "type": "Feature",
      "properties": {
        "@id": "node/1033548825",
        "access": "customers",
        "leisure": "swimming_pool",
        "length": "25",
        "lit": "yes",
        "location": "indoor",
        "name": "Piscine couverte",
        "operator": "Ville de Pully",
        "sport": "swimming",
        "swimming_pool": "indoor"
      },
      "geometry": {
        "type": "Point",
        "coordinates": [
          6.6557956,
          46.5105061
        ]
      },
      "id": "node/1033548825"
    },
    {
      "type": "Feature",
      "properties": {
        "@id": "node/1077303358",
        "name": "Freibad Buchenseen",
        "sport": "swimming",
        "water_park": "outdoor"
      },
      "geometry": {
        "type": "Point",
        "coordinates": [
          8.9808997,
          47.7692345
        ]
      },
      "id": "node/1077303358"
    },
    {
      "type": "Feature",
      "properties": {
        "@id": "node/1084103729",
        "addr:city": "Rümlang",
        "addr:housenumber": "44",
        "addr:postcode": "8153",
        "addr:street": "Katzenrütistrasse",
        "leisure": "swimming_pool",
        "name": "Sportanlage Heuel",
        "phone": "+41 44 817 71 00",
        "source": "www.ruemlang.ch",
        "sport": "swimming",
        "website": "http://www.ruemlang.ch/de/kulturundfreizeit/sportanlagen/welcome.php?action=showobject&object_id=7904"
      },
      "geometry": {
        "type": "Point",
        "coordinates": [
          8.5246401,
          47.448247
        ]
      },
      "id": "node/1084103729"
    },
    {
      "type": "Feature",
      "properties": {
        "@id": "node/1104448044",
        "access": "permissive",
        "leisure": "sports_centre",
        "name": "Lehrschwimmbecken Kleefeld",
        "sport": "swimming"
      },
      "geometry": {
        "type": "Point",
        "coordinates": [
          7.3855881,
          46.9369635
        ]
      },
      "id": "node/1104448044"
    },
    {
      "type": "Feature",
      "properties": {
        "@id": "node/1119301106",
        "covered": "yes",
        "leisure": "sports_centre",
        "name": "Schwimmbad Altdorf - Hallenbad",
        "sport": "swimming",
        "website": "https://www.schwimmbad-altdorf.ch/",
        "wheelchair": "yes"
      },
      "geometry": {
        "type": "Point",
        "coordinates": [
          8.628504,
          46.8921277
        ]
      },
      "id": "node/1119301106"
    },
    {
      "type": "Feature",
      "properties": {
        "@id": "node/1144660918",
        "name": "Schwimmbad Partenen",
        "sport": "swimming"
      },
      "geometry": {
        "type": "Point",
        "coordinates": [
          10.059917,
          46.967926
        ]
      },
      "id": "node/1144660918"
    },
    {
      "type": "Feature",
      "properties": {
        "@id": "node/1209561811",
        "sport": "swimming"
      },
      "geometry": {
        "type": "Point",
        "coordinates": [
          10.122349,
          47.2653315
        ]
      },
      "id": "node/1209561811"
    },
    {
      "type": "Feature",
      "properties": {
        "@id": "node/1261933587",
        "fee": "yes",
        "leisure": "sports_centre",
        "name": "Bagno Publico",
        "sport": "swimming",
        "website": "https://sport.bellinzona.ch/Bagno-pubblico"
      },
      "geometry": {
        "type": "Point",
        "coordinates": [
          9.0176033,
          46.198259
        ]
      },
      "id": "node/1261933587"
    },
    {
      "type": "Feature",
      "properties": {
        "@id": "node/1263619441",
        "leisure": "swimming_pool",
        "name": "Piscina Comunale Coperta di Valtournenche",
        "sport": "swimming"
      },
      "geometry": {
        "type": "Point",
        "coordinates": [
          7.6239486,
          45.8754179
        ]
      },
      "id": "node/1263619441"
    },
    {
      "type": "Feature",
      "properties": {
        "@id": "node/1299901546",
        "leisure": "swimming_pool",
        "name": "Lernschwimmbecken Schule Rüfenacht",
        "sport": "swimming"
      },
      "geometry": {
        "type": "Point",
        "coordinates": [
          7.5399295,
          46.9313373
        ]
      },
      "id": "node/1299901546"
    },
    {
      "type": "Feature",
      "properties": {
        "@id": "node/1299955457",
        "sport": "swimming"
      },
      "geometry": {
        "type": "Point",
        "coordinates": [
          8.9356916,
          47.761611
        ]
      },
      "id": "node/1299955457"
    },
    {
      "type": "Feature",
      "properties": {
        "@id": "node/1313488360",
        "sport": "swimming"
      },
      "geometry": {
        "type": "Point",
        "coordinates": [
          8.407971,
          47.0639599
        ]
      },
      "id": "node/1313488360"
    },
    {
      "type": "Feature",
      "properties": {
        "@id": "node/1336691757",
        "leisure": "swimming_pool",
        "name": "Hallenbad Mels",
        "sport": "swimming"
      },
      "geometry": {
        "type": "Point",
        "coordinates": [
          9.426432,
          47.0470276
        ]
      },
      "id": "node/1336691757"
    },
    {
      "type": "Feature",
      "properties": {
        "@id": "node/1348543903",
        "leisure": "swimming_pool",
        "opening_hours": "Mo-Sa 09:30-22:00; Su 09:00-18:00",
        "sport": "swimming"
      },
      "geometry": {
        "type": "Point",
        "coordinates": [
          7.5568308,
          47.2157901
        ]
      },
      "id": "node/1348543903"
    },
    {
      "type": "Feature",
      "properties": {
        "@id": "node/1350614833",
        "leisure": "swimming_pool",
        "name": "Hallenbad",
        "sport": "swimming",
        "wheelchair": "limited"
      },
      "geometry": {
        "type": "Point",
        "coordinates": [
          10.5708234,
          47.580696
        ]
      },
      "id": "node/1350614833"
    },
    {
      "type": "Feature",
      "properties": {
        "@id": "node/1383998302",
        "disused:amenity": "public_bath",
        "name": "Hallenbad Twannberg",
        "sport": "swimming"
      },
      "geometry": {
        "type": "Point",
        "coordinates": [
          7.1560951,
          47.1111574
        ]
      },
      "id": "node/1383998302"
    },
    {
      "type": "Feature",
      "properties": {
        "@id": "node/1389961854",
        "sport": "swimming"
      },
      "geometry": {
        "type": "Point",
        "coordinates": [
          9.3870277,
          47.4215293
        ]
      },
      "id": "node/1389961854"
    },
    {
      "type": "Feature",
      "properties": {
        "@id": "node/1395828928",
        "leisure": "sports_centre",
        "name": "Piscine d'Orbe",
        "sport": "swimming"
      },
      "geometry": {
        "type": "Point",
        "coordinates": [
          6.5323416,
          46.7349404
        ]
      },
      "id": "node/1395828928"
    },
    {
      "type": "Feature",
      "properties": {
        "@id": "node/1532747285",
        "leisure": "swimming_pool",
        "name": "Frei- und Sprudelbad",
        "sport": "swimming"
      },
      "geometry": {
        "type": "Point",
        "coordinates": [
          8.8953835,
          47.5521817
        ]
      },
      "id": "node/1532747285"
    },
    {
      "type": "Feature",
      "properties": {
        "@id": "node/1576620922",
        "leisure": "sports_centre",
        "name": "Piscine couverte du Rocher",
        "sport": "swimming"
      },
      "geometry": {
        "type": "Point",
        "coordinates": [
          6.2376202,
          46.3872065
        ]
      },
      "id": "node/1576620922"
    },
    {
      "type": "Feature",
      "properties": {
        "@id": "node/1584636400",
        "sport": "swimming"
      },
      "geometry": {
        "type": "Point",
        "coordinates": [
          10.1620699,
          47.5731
        ]
      },
      "id": "node/1584636400"
    },
    {
      "type": "Feature",
      "properties": {
        "@id": "node/1599802306",
        "leisure": "sports_centre",
        "name": "Hallenbad Rialto",
        "sport": "swimming"
      },
      "geometry": {
        "type": "Point",
        "coordinates": [
          7.5833592,
          47.5501263
        ]
      },
      "id": "node/1599802306"
    },
    {
      "type": "Feature",
      "properties": {
        "@id": "node/1621902989",
        "leisure": "sports_centre",
        "name": "Hallenbad Muttenz",
        "sport": "swimming"
      },
      "geometry": {
        "type": "Point",
        "coordinates": [
          7.6368317,
          47.5259798
        ]
      },
      "id": "node/1621902989"
    },
    {
      "type": "Feature",
      "properties": {
        "@id": "node/1636895314",
        "leisure": "swimming_area",
        "name": "Strandbad Egg",
        "sport": "swimming",
        "wheelchair": "limited"
      },
      "geometry": {
        "type": "Point",
        "coordinates": [
          9.1933558,
          47.6958476
        ]
      },
      "id": "node/1636895314"
    },
    {
      "type": "Feature",
      "properties": {
        "@id": "node/1654954234",
        "access": "yes",
        "barrier": "entrance",
        "covered": "no",
        "leisure": "swimming_pool",
        "name": "Schwimmbad Frutzauen",
        "sport": "swimming",
        "wheelchair": "yes"
      },
      "geometry": {
        "type": "Point",
        "coordinates": [
          9.645119,
          47.2846233
        ]
      },
      "id": "node/1654954234"
    },
    {
      "type": "Feature",
      "properties": {
        "@id": "node/1676193137",
        "name": "Vitamare Hallenbad",
        "sport": "swimming"
      },
      "geometry": {
        "type": "Point",
        "coordinates": [
          8.0202201,
          47.5021727
        ]
      },
      "id": "node/1676193137"
    },
    {
      "type": "Feature",
      "properties": {
        "@id": "node/1699495284",
        "leisure": "swimming_area",
        "sport": "swimming"
      },
      "geometry": {
        "type": "Point",
        "coordinates": [
          8.9869256,
          47.5936162
        ]
      },
      "id": "node/1699495284"
    },
    {
      "type": "Feature",
      "properties": {
        "@id": "node/1728558194",
        "access": "yes",
        "bath:open_air": "yes",
        "covered": "no",
        "fee": "yes",
        "leisure": "swimming_pool",
        "name": "Freibad Lerchenfeld",
        "sport": "swimming",
        "water_park": "outdoor"
      },
      "geometry": {
        "type": "Point",
        "coordinates": [
          9.3417313,
          47.4158291
        ]
      },
      "id": "node/1728558194"
    },
    {
      "type": "Feature",
      "properties": {
        "@id": "node/1734994279",
        "leisure": "swimming_area",
        "sport": "swimming"
      },
      "geometry": {
        "type": "Point",
        "coordinates": [
          9.555199,
          47.5006693
        ]
      },
      "id": "node/1734994279"
    },
    {
      "type": "Feature",
      "properties": {
        "@id": "node/1735035810",
        "leisure": "swimming_area",
        "sport": "swimming"
      },
      "geometry": {
        "type": "Point",
        "coordinates": [
          9.5488797,
          47.492045
        ]
      },
      "id": "node/1735035810"
    },
    {
      "type": "Feature",
      "properties": {
        "@id": "node/1735041253",
        "leisure": "sports_centre",
        "name": "Freibad Speck",
        "sport": "swimming"
      },
      "geometry": {
        "type": "Point",
        "coordinates": [
          9.5413668,
          47.4835317
        ]
      },
      "id": "node/1735041253"
    },
    {
      "type": "Feature",
      "properties": {
        "@id": "node/1747366323",
        "leisure": "swimming_pool",
        "sport": "swimming",
        "wheelchair": "no"
      },
      "geometry": {
        "type": "Point",
        "coordinates": [
          8.5031991,
          47.1813507
        ]
      },
      "id": "node/1747366323"
    },
    {
      "type": "Feature",
      "properties": {
        "@id": "node/1758584885",
        "amenity": "public_bath",
        "bath:open_air": "no",
        "bath:type": "thermal",
        "name": "Thermalbad Egelsee",
        "spa": "therme",
        "sport": "swimming",
        "website": "https://www.schulekreuzlingen.ch/web/cms.php?open=Thermalbad"
      },
      "geometry": {
        "type": "Point",
        "coordinates": [
          9.1761652,
          47.6450477
        ]
      },
      "id": "node/1758584885"
    },
    {
      "type": "Feature",
      "properties": {
        "@id": "node/1762986997",
        "addr:city": "Chavannes-près-Renens",
        "addr:housenumber": "2",
        "addr:postcode": "1022",
        "addr:street": "Route de la Plaine",
        "leisure": "swimming_pool",
        "name": "Piscine de la Plaine",
        "operator": "commune",
        "phone": "+41 21 633 32 30",
        "sport": "swimming"
      },
      "geometry": {
        "type": "Point",
        "coordinates": [
          6.5723446,
          46.527121
        ]
      },
      "id": "node/1762986997"
    },
    {
      "type": "Feature",
      "properties": {
        "@id": "node/1824805577",
        "name": "Strandbaad Horn",
        "sport": "swimming"
      },
      "geometry": {
        "type": "Point",
        "coordinates": [
          8.997146,
          47.6866546
        ]
      },
      "id": "node/1824805577"
    },
    {
      "type": "Feature",
      "properties": {
        "@id": "node/1825585439",
        "leisure": "swimming_area",
        "name": "Strandbad Sipplingen",
        "sport": "swimming"
      },
      "geometry": {
        "type": "Point",
        "coordinates": [
          9.0907656,
          47.7969405
        ]
      },
      "id": "node/1825585439"
    },
    {
      "type": "Feature",
      "properties": {
        "@id": "node/1837282862",
        "leisure": "swimming_pool",
        "sport": "swimming",
        "swimming_pool": "indoor"
      },
      "geometry": {
        "type": "Point",
        "coordinates": [
          8.5706659,
          47.4319041
        ]
      },
      "id": "node/1837282862"
    },
    {
      "type": "Feature",
      "properties": {
        "@id": "node/1841821790",
        "leisure": "sports_centre",
        "name": "Hallenbad Allmend",
        "sport": "swimming",
        "website": "http://www.hallenbadallmend.ch"
      },
      "geometry": {
        "type": "Point",
        "coordinates": [
          8.3045428,
          47.0317387
        ]
      },
      "id": "node/1841821790"
    },
    {
      "type": "Feature",
      "properties": {
        "@id": "node/1842989341",
        "natural": "beach",
        "sport": "swimming"
      },
      "geometry": {
        "type": "Point",
        "coordinates": [
          8.8078988,
          47.6780468
        ]
      },
      "id": "node/1842989341"
    },
    {
      "type": "Feature",
      "properties": {
        "@id": "node/1846698533",
        "access": "yes",
        "covered": "no",
        "leisure": "sports_centre",
        "name": "Schwimmbad Grosshöchstetten",
        "source": "www.bad-g.ch",
        "sport": "swimming",
        "wheelchair": "yes"
      },
      "geometry": {
        "type": "Point",
        "coordinates": [
          7.6356435,
          46.902289
        ]
      },
      "id": "node/1846698533"
    },
    {
      "type": "Feature",
      "properties": {
        "@id": "node/1875033636",
        "leisure": "sports_centre",
        "sport": "swimming"
      },
      "geometry": {
        "type": "Point",
        "coordinates": [
          6.1986211,
          46.2055023
        ]
      },
      "id": "node/1875033636"
    },
    {
      "type": "Feature",
      "properties": {
        "@id": "node/1883584694",
        "leisure": "swimming_area",
        "sport": "swimming",
        "supervised": "no"
      },
      "geometry": {
        "type": "Point",
        "coordinates": [
          10.0496833,
          47.5299302
        ]
      },
      "id": "node/1883584694"
    },
    {
      "type": "Feature",
      "properties": {
        "@id": "node/1893978325",
        "sport": "swimming"
      },
      "geometry": {
        "type": "Point",
        "coordinates": [
          8.6824955,
          45.9643291
        ]
      },
      "id": "node/1893978325"
    },
    {
      "type": "Feature",
      "properties": {
        "@id": "node/1909930778",
        "leisure": "swimming_pool",
        "name": "Piscina Comunale",
        "sport": "swimming"
      },
      "geometry": {
        "type": "Point",
        "coordinates": [
          10.1780428,
          46.2185953
        ]
      },
      "id": "node/1909930778"
    },
    {
      "type": "Feature",
      "properties": {
        "@id": "node/1917491753",
        "sport": "swimming"
      },
      "geometry": {
        "type": "Point",
        "coordinates": [
          7.5051916,
          46.9110903
        ]
      },
      "id": "node/1917491753"
    },
    {
      "type": "Feature",
      "properties": {
        "@id": "node/1943934575",
        "name": "Hallenbad Wolfacker",
        "opening_hours": "Mo-Tu 18:00-21:30; Fr 19:00-21:30; Sa 15:00-21:30; Su 08:30-11:30; We-Th off",
        "sport": "swimming",
        "website": "http://www.duedingen.ch/kultur-sport-freizeit/schwimmbad-wolfacker/index.html"
      },
      "geometry": {
        "type": "Point",
        "coordinates": [
          7.1947339,
          46.8495257
        ]
      },
      "id": "node/1943934575"
    },
    {
      "type": "Feature",
      "properties": {
        "@id": "node/1966371051",
        "covered": "no",
        "leisure": "swimming_pool",
        "location": "indoor",
        "sport": "swimming",
        "wheelchair": "yes"
      },
      "geometry": {
        "type": "Point",
        "coordinates": [
          7.6242532,
          46.8753678
        ]
      },
      "id": "node/1966371051"
    },
    {
      "type": "Feature",
      "properties": {
        "@id": "node/1978116039",
        "leisure": "sports_centre",
        "name": "Pratogrande",
        "sport": "swimming"
      },
      "geometry": {
        "type": "Point",
        "coordinates": [
          9.4019181,
          45.8114101
        ]
      },
      "id": "node/1978116039"
    },
    {
      "type": "Feature",
      "properties": {
        "@id": "node/1993429966",
        "covered": "yes",
        "leisure": "sports_centre",
        "name": "Piscine de Pervenches",
        "sport": "swimming"
      },
      "geometry": {
        "type": "Point",
        "coordinates": [
          6.1366912,
          46.1870698
        ]
      },
      "id": "node/1993429966"
    },
    {
      "type": "Feature",
      "properties": {
        "@id": "node/2006129698",
        "covered": "yes",
        "leisure": "sports_centre",
        "sport": "swimming"
      },
      "geometry": {
        "type": "Point",
        "coordinates": [
          7.8433571,
          47.3376335
        ]
      },
      "id": "node/2006129698"
    },
    {
      "type": "Feature",
      "properties": {
        "@id": "node/2048993975",
        "access": "yes",
        "addr:housenumber": "46",
        "addr:street": "Avenue Giuseppe-Motta",
        "contact:fax": "+41 22 418 93 11",
        "contact:phone": "+41 22 418 93 00",
        "leisure": "sports_centre",
        "name": "Piscine de Varembé",
        "sport": "swimming",
        "website": "http://www.ville-geneve.ch/plan-ville/sports/piscine-varembe/",
        "wheelchair": "yes"
      },
      "geometry": {
        "type": "Point",
        "coordinates": [
          6.1349956,
          46.2192994
        ]
      },
      "id": "node/2048993975"
    },
    {
      "type": "Feature",
      "properties": {
        "@id": "node/2067065067",
        "covered": "no",
        "leisure": "swimming_pool",
        "name": "Freibad Flawil",
        "sport": "swimming",
        "water_park": "outdoor"
      },
      "geometry": {
        "type": "Point",
        "coordinates": [
          9.1914323,
          47.4044996
        ]
      },
      "id": "node/2067065067"
    },
    {
      "type": "Feature",
      "properties": {
        "@id": "node/2067089002",
        "covered": "no",
        "leisure": "swimming_pool",
        "name": "Freibad Degersheim",
        "sport": "swimming",
        "water_park": "outdoor"
      },
      "geometry": {
        "type": "Point",
        "coordinates": [
          9.2025248,
          47.3740632
        ]
      },
      "id": "node/2067089002"
    },
    {
      "type": "Feature",
      "properties": {
        "@id": "node/2077665896",
        "leisure": "swimming_pool",
        "name": "Hallenbad Oberuzwil",
        "sport": "swimming",
        "wheelchair": "no"
      },
      "geometry": {
        "type": "Point",
        "coordinates": [
          9.1204069,
          47.4293018
        ]
      },
      "id": "node/2077665896"
    },
    {
      "type": "Feature",
      "properties": {
        "@id": "node/2085652894",
        "access": "private",
        "leisure": "swimming_pool",
        "sport": "swimming"
      },
      "geometry": {
        "type": "Point",
        "coordinates": [
          8.6076884,
          45.9525234
        ]
      },
      "id": "node/2085652894"
    },
    {
      "type": "Feature",
      "properties": {
        "@id": "node/2085783545",
        "access": "private",
        "leisure": "swimming_pool",
        "sport": "swimming"
      },
      "geometry": {
        "type": "Point",
        "coordinates": [
          8.6022998,
          45.9496366
        ]
      },
      "id": "node/2085783545"
    },
    {
      "type": "Feature",
      "properties": {
        "@id": "node/2085787616",
        "access": "private",
        "leisure": "swimming_pool",
        "sport": "swimming"
      },
      "geometry": {
        "type": "Point",
        "coordinates": [
          8.6000682,
          45.9457015
        ]
      },
      "id": "node/2085787616"
    },
    {
      "type": "Feature",
      "properties": {
        "@id": "node/2085797810",
        "access": "private",
        "leisure": "swimming_pool",
        "sport": "swimming"
      },
      "geometry": {
        "type": "Point",
        "coordinates": [
          8.6149223,
          45.9567713
        ]
      },
      "id": "node/2085797810"
    },
    {
      "type": "Feature",
      "properties": {
        "@id": "node/2086967221",
        "access": "private",
        "leisure": "swimming_pool",
        "sport": "swimming"
      },
      "geometry": {
        "type": "Point",
        "coordinates": [
          8.6206622,
          45.9653015
        ]
      },
      "id": "node/2086967221"
    },
    {
      "type": "Feature",
      "properties": {
        "@id": "node/2087433086",
        "access": "private",
        "leisure": "swimming_pool",
        "sport": "swimming"
      },
      "geometry": {
        "type": "Point",
        "coordinates": [
          8.5944973,
          45.9469958
        ]
      },
      "id": "node/2087433086"
    },
    {
      "type": "Feature",
      "properties": {
        "@id": "node/2087443485",
        "access": "private",
        "leisure": "swimming_pool",
        "sport": "swimming"
      },
      "geometry": {
        "type": "Point",
        "coordinates": [
          8.5960127,
          45.950183
        ]
      },
      "id": "node/2087443485"
    },
    {
      "type": "Feature",
      "properties": {
        "@id": "node/2087471271",
        "access": "private",
        "leisure": "swimming_pool",
        "sport": "swimming"
      },
      "geometry": {
        "type": "Point",
        "coordinates": [
          8.5944517,
          45.9503304
        ]
      },
      "id": "node/2087471271"
    },
    {
      "type": "Feature",
      "properties": {
        "@id": "node/2087471320",
        "access": "private",
        "leisure": "swimming_pool",
        "sport": "swimming"
      },
      "geometry": {
        "type": "Point",
        "coordinates": [
          8.5954414,
          45.951992
        ]
      },
      "id": "node/2087471320"
    },
    {
      "type": "Feature",
      "properties": {
        "@id": "node/2088294337",
        "access": "private",
        "leisure": "swimming_pool",
        "sport": "swimming"
      },
      "geometry": {
        "type": "Point",
        "coordinates": [
          8.6901844,
          46.0779149
        ]
      },
      "id": "node/2088294337"
    },
    {
      "type": "Feature",
      "properties": {
        "@id": "node/2090956977",
        "leisure": "sports_centre",
        "name": "Männerbad",
        "sport": "swimming"
      },
      "geometry": {
        "type": "Point",
        "coordinates": [
          8.5079241,
          47.1715109
        ]
      },
      "id": "node/2090956977"
    },
    {
      "type": "Feature",
      "properties": {
        "@id": "node/2095711172",
        "access": "customers",
        "leisure": "swimming_pool",
        "name": "Piscine de Thyon 2000",
        "sport": "swimming",
        "swimming_pool": "indoor"
      },
      "geometry": {
        "type": "Point",
        "coordinates": [
          7.3722146,
          46.1811824
        ]
      },
      "id": "node/2095711172"
    },
    {
      "type": "Feature",
      "properties": {
        "@id": "node/2097780995",
        "access": "private",
        "leisure": "swimming_pool",
        "sport": "swimming"
      },
      "geometry": {
        "type": "Point",
        "coordinates": [
          8.6877053,
          46.022987
        ]
      },
      "id": "node/2097780995"
    },
    {
      "type": "Feature",
      "properties": {
        "@id": "node/2098236280",
        "indoor": "yes",
        "leisure": "swimming_pool",
        "sport": "swimming"
      },
      "geometry": {
        "type": "Point",
        "coordinates": [
          6.7041489,
          46.1850604
        ]
      },
      "id": "node/2098236280"
    },
    {
      "type": "Feature",
      "properties": {
        "@id": "node/2100382522",
        "access": "private",
        "leisure": "swimming_pool",
        "sport": "swimming"
      },
      "geometry": {
        "type": "Point",
        "coordinates": [
          8.694485,
          46.0309569
        ]
      },
      "id": "node/2100382522"
    },
    {
      "type": "Feature",
      "properties": {
        "@id": "node/2102073137",
        "access": "private",
        "leisure": "swimming_pool",
        "sport": "swimming"
      },
      "geometry": {
        "type": "Point",
        "coordinates": [
          8.6825636,
          46.0205251
        ]
      },
      "id": "node/2102073137"
    },
    {
      "type": "Feature",
      "properties": {
        "@id": "node/2106317383",
        "amenity": "stream_pool",
        "covered": "no",
        "name": "Mulino",
        "sport": "swimming"
      },
      "geometry": {
        "type": "Point",
        "coordinates": [
          9.0489138,
          46.0332405
        ]
      },
      "id": "node/2106317383"
    },
    {
      "type": "Feature",
      "properties": {
        "@id": "node/2106914582",
        "access": "private",
        "leisure": "swimming_pool",
        "sport": "swimming"
      },
      "geometry": {
        "type": "Point",
        "coordinates": [
          8.5344159,
          45.8122953
        ]
      },
      "id": "node/2106914582"
    },
    {
      "type": "Feature",
      "properties": {
        "@id": "node/2106918738",
        "name": "Schulschwimmanlage Kügeliloo",
        "sport": "swimming"
      },
      "geometry": {
        "type": "Point",
        "coordinates": [
          8.5281058,
          47.4111083
        ]
      },
      "id": "node/2106918738"
    },
    {
      "type": "Feature",
      "properties": {
        "@id": "node/2107248962",
        "addr:city": "Grins",
        "addr:country": "AT",
        "addr:housenumber": "99f",
        "addr:postcode": "6591",
        "addr:street": "Fals",
        "entrance": "yes",
        "image": "File:Schwimmbad Grins 01.jpg",
        "leisure": "swimming_pool",
        "name": "Schwimmbad Grins",
        "operator": "Gemeinde Grins",
        "phone": "+43 5442 64474",
        "source": "survey",
        "sport": "swimming",
        "website": "http://www.grins.tirol.gv.at/system/web/gelbeseite.aspx?menuonr=218983839&typ=1&detailonr=219184344",
        "wheelchair": "limited"
      },
      "geometry": {
        "type": "Point",
        "coordinates": [
          10.5117669,
          47.1431334
        ]
      },
      "id": "node/2107248962"
    },
    {
      "type": "Feature",
      "properties": {
        "@id": "node/2111021967",
        "leisure": "swimming_pool",
        "sport": "swimming"
      },
      "geometry": {
        "type": "Point",
        "coordinates": [
          8.50407,
          45.794536
        ]
      },
      "id": "node/2111021967"
    },
    {
      "type": "Feature",
      "properties": {
        "@id": "node/2111021972",
        "access": "private",
        "leisure": "swimming_pool",
        "sport": "swimming"
      },
      "geometry": {
        "type": "Point",
        "coordinates": [
          8.503893,
          45.7936177
        ]
      },
      "id": "node/2111021972"
    },
    {
      "type": "Feature",
      "properties": {
        "@id": "node/2111021975",
        "access": "private",
        "leisure": "swimming_pool",
        "sport": "swimming"
      },
      "geometry": {
        "type": "Point",
        "coordinates": [
          8.5022863,
          45.7938383
        ]
      },
      "id": "node/2111021975"
    },
    {
      "type": "Feature",
      "properties": {
        "@id": "node/2111411196",
        "access": "private",
        "leisure": "swimming_pool",
        "sport": "swimming"
      },
      "geometry": {
        "type": "Point",
        "coordinates": [
          8.5285869,
          45.7993834
        ]
      },
      "id": "node/2111411196"
    },
    {
      "type": "Feature",
      "properties": {
        "@id": "node/2118348536",
        "covered": "yes",
        "leisure": "swimming_pool",
        "sport": "swimming"
      },
      "geometry": {
        "type": "Point",
        "coordinates": [
          7.8571421,
          46.690272
        ]
      },
      "id": "node/2118348536"
    },
    {
      "type": "Feature",
      "properties": {
        "@id": "node/2127756250",
        "access": "private",
        "leisure": "swimming_pool",
        "sport": "swimming"
      },
      "geometry": {
        "type": "Point",
        "coordinates": [
          8.5564395,
          45.819773
        ]
      },
      "id": "node/2127756250"
    },
    {
      "type": "Feature",
      "properties": {
        "@id": "node/2150519363",
        "leisure": "swimming_pool",
        "sport": "swimming"
      },
      "geometry": {
        "type": "Point",
        "coordinates": [
          6.210279,
          46.7083693
        ]
      },
      "id": "node/2150519363"
    },
    {
      "type": "Feature",
      "properties": {
        "@id": "node/2151576448",
        "leisure": "sports_centre",
        "opening_hours": "Mo off; SH 14:00-18:00; Tu-Fr 17:30-20:30; SH 14:00-20:30; Th off; SH 14:00-18:00; Sa-So 09:00-16:00; PH 09:00-16:00; May-Sep off",
        "sport": "swimming",
        "wheelchair": "limited"
      },
      "geometry": {
        "type": "Point",
        "coordinates": [
          7.9117974,
          47.3541198
        ]
      },
      "id": "node/2151576448"
    },
    {
      "type": "Feature",
      "properties": {
        "@id": "node/2153757212",
        "leisure": "swimming_area",
        "nudism": "no",
        "sport": "swimming",
        "supervised": "no"
      },
      "geometry": {
        "type": "Point",
        "coordinates": [
          10.161714,
          47.5671734
        ]
      },
      "id": "node/2153757212"
    },
    {
      "type": "Feature",
      "properties": {
        "@id": "node/2173194100",
        "disused:amenity": "public_bath",
        "name": "Tenigerbad",
        "sport": "swimming"
      },
      "geometry": {
        "type": "Point",
        "coordinates": [
          8.9572637,
          46.6898625
        ]
      },
      "id": "node/2173194100"
    },
    {
      "type": "Feature",
      "properties": {
        "@id": "node/2174078883",
        "access": "yes",
        "covered": "yes",
        "leisure": "sports_centre",
        "name": "Hallen- und Freibad Oberhofen",
        "source": "http://www.fitnesspark.ch/hallenbad-oberhofen/",
        "sport": "swimming",
        "website": "http://www.fitnesspark.ch/hallenbad-oberhofen/"
      },
      "geometry": {
        "type": "Point",
        "coordinates": [
          7.6721421,
          46.7280718
        ]
      },
      "id": "node/2174078883"
    },
    {
      "type": "Feature",
      "properties": {
        "@id": "node/2238796065",
        "bath:type": "thermal",
        "leisure": "sports_centre",
        "name": "Aquandeer",
        "sport": "swimming",
        "website": "https://mineralbad-andeer.ch/"
      },
      "geometry": {
        "type": "Point",
        "coordinates": [
          9.4266956,
          46.6051022
        ]
      },
      "id": "node/2238796065"
    },
    {
      "type": "Feature",
      "properties": {
        "@id": "node/2262958710",
        "leisure": "swimming_pool",
        "sport": "swimming"
      },
      "geometry": {
        "type": "Point",
        "coordinates": [
          9.8791333,
          47.782692
        ]
      },
      "id": "node/2262958710"
    },
    {
      "type": "Feature",
      "properties": {
        "@id": "node/2306419260",
        "leisure": "sports_centre",
        "name": "Piscine Le Jarbay",
        "sport": "swimming"
      },
      "geometry": {
        "type": "Point",
        "coordinates": [
          6.4826043,
          46.0495327
        ]
      },
      "id": "node/2306419260"
    },
    {
      "type": "Feature",
      "properties": {
        "@id": "node/2316484682",
        "leisure": "sports_centre",
        "name": "Piscine Les Ailes",
        "sport": "swimming",
        "website": "http://www.cs-cointrin.ch/piscine.php"
      },
      "geometry": {
        "type": "Point",
        "coordinates": [
          6.104525,
          46.2261279
        ]
      },
      "id": "node/2316484682"
    },
    {
      "type": "Feature",
      "properties": {
        "@id": "node/2340203145",
        "covered": "no",
        "leisure": "swimming_area",
        "operator": "Strandbad Bodman",
        "sport": "swimming"
      },
      "geometry": {
        "type": "Point",
        "coordinates": [
          9.0309495,
          47.8047852
        ]
      },
      "id": "node/2340203145"
    },
    {
      "type": "Feature",
      "properties": {
        "@id": "node/2340208913",
        "covered": "no",
        "leisure": "swimming_area",
        "sport": "swimming"
      },
      "geometry": {
        "type": "Point",
        "coordinates": [
          9.0624534,
          47.8144423
        ]
      },
      "id": "node/2340208913"
    },
    {
      "type": "Feature",
      "properties": {
        "@id": "node/2361262806",
        "leisure": "swimming_pool",
        "name": "Water Park",
        "sport": "swimming"
      },
      "geometry": {
        "type": "Point",
        "coordinates": [
          8.8708399,
          45.9575551
        ]
      },
      "id": "node/2361262806"
    },
    {
      "type": "Feature",
      "properties": {
        "@id": "node/2384674373",
        "covered": "no",
        "leisure": "swimming_pool",
        "name": "Moorbad (kostenfrei)",
        "sport": "swimming"
      },
      "geometry": {
        "type": "Point",
        "coordinates": [
          10.0094152,
          47.4403216
        ]
      },
      "id": "node/2384674373"
    },
    {
      "type": "Feature",
      "properties": {
        "@id": "node/2386414286",
        "leisure": "swimming_pool",
        "sport": "swimming"
      },
      "geometry": {
        "type": "Point",
        "coordinates": [
          7.000177,
          47.2508276
        ]
      },
      "id": "node/2386414286"
    },
    {
      "type": "Feature",
      "properties": {
        "@id": "node/2392581194",
        "leisure": "sports_centre",
        "name": "Hallenbad Leepünt",
        "sport": "swimming",
        "toilets:wheelchair": "yes",
        "wheelchair": "yes"
      },
      "geometry": {
        "type": "Point",
        "coordinates": [
          8.4393827,
          47.4387591
        ]
      },
      "id": "node/2392581194"
    },
    {
      "type": "Feature",
      "properties": {
        "@id": "node/2399452572",
        "alt_name": "Judo und Jiu-Jitsu Club Bern JJCB",
        "contact:addr": "Militärstrasse 36, 3014 Bern",
        "contact:email": "jjcb@jjcb.ch",
        "contact:phone": "+41 79 3139812",
        "leisure": "sports_centre",
        "name": "Dojo JJCB",
        "source": "website",
        "sport": "swimming",
        "website": "https://www.jjcb.ch"
      },
      "geometry": {
        "type": "Point",
        "coordinates": [
          7.4579644,
          46.9591026
        ]
      },
      "id": "node/2399452572"
    },
    {
      "type": "Feature",
      "properties": {
        "@id": "node/2400484362",
        "name": "Bogn Cuernà Quadras",
        "sport": "swimming"
      },
      "geometry": {
        "type": "Point",
        "coordinates": [
          10.3029021,
          46.796247
        ]
      },
      "id": "node/2400484362"
    },
    {
      "type": "Feature",
      "properties": {
        "@id": "node/2402617683",
        "leisure": "swimming_area",
        "nudism": "obligatory",
        "sport": "swimming",
        "supervised": "no"
      },
      "geometry": {
        "type": "Point",
        "coordinates": [
          10.1757865,
          47.5765433
        ]
      },
      "id": "node/2402617683"
    },
    {
      "type": "Feature",
      "properties": {
        "@id": "node/2424019449",
        "covered": "yes",
        "leisure": "swimming_pool",
        "name": "Hallenbad",
        "sport": "swimming"
      },
      "geometry": {
        "type": "Point",
        "coordinates": [
          8.2675917,
          47.4159017
        ]
      },
      "id": "node/2424019449"
    },
    {
      "type": "Feature",
      "properties": {
        "@id": "node/2447386790",
        "sport": "swimming"
      },
      "geometry": {
        "type": "Point",
        "coordinates": [
          9.0027239,
          46.0050826
        ]
      },
      "id": "node/2447386790"
    },
    {
      "type": "Feature",
      "properties": {
        "@id": "node/2507670116",
        "description:en": "stainless steel ladder leading down from the platform into the lake",
        "sport": "swimming"
      },
      "geometry": {
        "type": "Point",
        "coordinates": [
          6.9089757,
          46.4320977
        ]
      },
      "id": "node/2507670116"
    },
    {
      "type": "Feature",
      "properties": {
        "@id": "node/2512208563",
        "leisure": "sports_centre",
        "name": "Hallenbad",
        "sport": "swimming"
      },
      "geometry": {
        "type": "Point",
        "coordinates": [
          8.4667782,
          47.4059635
        ]
      },
      "id": "node/2512208563"
    },
    {
      "type": "Feature",
      "properties": {
        "@id": "node/2549731139",
        "leisure": "sports_centre",
        "name": "Piscine Pierre et Marie Curie",
        "name:etymology:wikidata": "Q37463;Q7186",
        "sport": "swimming"
      },
      "geometry": {
        "type": "Point",
        "coordinates": [
          7.3348674,
          47.7508007
        ]
      },
      "id": "node/2549731139"
    },
    {
      "type": "Feature",
      "properties": {
        "@id": "node/2573478863",
        "access": "customers",
        "amenity": "public_bath",
        "bath:open_air": "yes",
        "bath:type": "lake",
        "dog": "leashed",
        "fee": "yes",
        "name": "Strandbad Lachen",
        "sport": "swimming"
      },
      "geometry": {
        "type": "Point",
        "coordinates": [
          8.8523842,
          47.197027
        ]
      },
      "id": "node/2573478863"
    },
    {
      "type": "Feature",
      "properties": {
        "@id": "node/2577545824",
        "indoor": "yes",
        "leisure": "swimming_pool",
        "length": "25",
        "name": "Hallenbad Geroldswil",
        "sport": "swimming",
        "website": "http://www.geroldswil.ch/xml_1/internet/de/application/d5/d555/f487.cfm"
      },
      "geometry": {
        "type": "Point",
        "coordinates": [
          8.4092815,
          47.4223378
        ]
      },
      "id": "node/2577545824"
    },
    {
      "type": "Feature",
      "properties": {
        "@id": "node/2593022210",
        "leisure": "swimming_pool",
        "sport": "swimming"
      },
      "geometry": {
        "type": "Point",
        "coordinates": [
          7.2324785,
          46.1455523
        ]
      },
      "id": "node/2593022210"
    },
    {
      "type": "Feature",
      "properties": {
        "@id": "node/2610051991",
        "leisure": "swimming_pool",
        "name": "Centre Sportif du Val-de-Travers",
        "sport": "swimming"
      },
      "geometry": {
        "type": "Point",
        "coordinates": [
          6.6394343,
          46.9286829
        ]
      },
      "id": "node/2610051991"
    },
    {
      "type": "Feature",
      "properties": {
        "@id": "node/2619754172",
        "leisure": "pitch",
        "name": "Strandbad Uerikon",
        "sport": "swimming"
      },
      "geometry": {
        "type": "Point",
        "coordinates": [
          8.760973,
          47.2341554
        ]
      },
      "id": "node/2619754172"
    },
    {
      "type": "Feature",
      "properties": {
        "@id": "node/2650115100",
        "access": "customers",
        "note": "Badestrand gehört zum Campingplatz.",
        "sport": "swimming"
      },
      "geometry": {
        "type": "Point",
        "coordinates": [
          7.4746282,
          47.0231504
        ]
      },
      "id": "node/2650115100"
    },
    {
      "type": "Feature",
      "properties": {
        "@id": "node/2688437231",
        "leisure": "swimming_pool",
        "sport": "swimming"
      },
      "geometry": {
        "type": "Point",
        "coordinates": [
          8.2785369,
          46.0807118
        ]
      },
      "id": "node/2688437231"
    },
    {
      "type": "Feature",
      "properties": {
        "@id": "node/2710516033",
        "covered": "yes",
        "indoor": "door",
        "leisure": "swimming_pool",
        "note": "Hallenbad (nur für Gäste)",
        "sport": "swimming"
      },
      "geometry": {
        "type": "Point",
        "coordinates": [
          9.3320538,
          47.2038693
        ]
      },
      "id": "node/2710516033"
    },
    {
      "type": "Feature",
      "properties": {
        "@id": "node/2710527236",
        "leisure": "swimming_pool",
        "name": "Reka",
        "sport": "swimming"
      },
      "geometry": {
        "type": "Point",
        "coordinates": [
          8.1971118,
          46.7470874
        ]
      },
      "id": "node/2710527236"
    },
    {
      "type": "Feature",
      "properties": {
        "@id": "node/2727961454",
        "access": "private",
        "leisure": "swimming_pool",
        "sport": "swimming",
        "wheelchair": "no"
      },
      "geometry": {
        "type": "Point",
        "coordinates": [
          6.4284895,
          45.9398587
        ]
      },
      "id": "node/2727961454"
    },
    {
      "type": "Feature",
      "properties": {
        "@id": "node/2731039644",
        "covered": "no",
        "leisure": "swimming_pool",
        "name": "Badi Mellikon",
        "sport": "swimming"
      },
      "geometry": {
        "type": "Point",
        "coordinates": [
          8.3510296,
          47.5698215
        ]
      },
      "id": "node/2731039644"
    },
    {
      "type": "Feature",
      "properties": {
        "@id": "node/2814984521",
        "leisure": "swimming_pool",
        "location": "yes",
        "sport": "swimming",
        "swimming_pool": "indoor"
      },
      "geometry": {
        "type": "Point",
        "coordinates": [
          8.6226975,
          47.4423805
        ]
      },
      "id": "node/2814984521"
    },
    {
      "type": "Feature",
      "properties": {
        "@id": "node/2854983862",
        "leisure": "swimming_pool",
        "name": "Piscine du Reposieux",
        "opening_hours": "Mo, Tu, Th 20:30-22:00; We 13:15-15:00; Sa 14:00-17:00; Su 09:00-12:00, 14:00-17:00",
        "phone": "+41 24 471 14 98",
        "sport": "swimming"
      },
      "geometry": {
        "type": "Point",
        "coordinates": [
          6.9520423,
          46.2594756
        ]
      },
      "id": "node/2854983862"
    },
    {
      "type": "Feature",
      "properties": {
        "@id": "node/2861455884",
        "sport": "swimming"
      },
      "geometry": {
        "type": "Point",
        "coordinates": [
          8.781506,
          47.6771239
        ]
      },
      "id": "node/2861455884"
    },
    {
      "type": "Feature",
      "properties": {
        "@id": "node/2938046346",
        "leisure": "sports_centre",
        "loc_name": "Badi Thayngen",
        "name": "Schwimmbad Büte",
        "sport": "swimming"
      },
      "geometry": {
        "type": "Point",
        "coordinates": [
          8.7040537,
          47.7526654
        ]
      },
      "id": "node/2938046346"
    },
    {
      "type": "Feature",
      "properties": {
        "@id": "node/2940341504",
        "leisure": "swimming_pool",
        "source": "data.gouv.fr:Le ministère des droits des femmes, de la ville, de la jeunesse et des sports - 2014",
        "sport": "swimming"
      },
      "geometry": {
        "type": "Point",
        "coordinates": [
          6.7060822,
          45.9022065
        ]
      },
      "id": "node/2940341504"
    },
    {
      "type": "Feature",
      "properties": {
        "@id": "node/2971646279",
        "access": "permissive",
        "covered": "yes",
        "horse": "no",
        "leisure": "swimming_pool",
        "motor_vehicle": "permissive",
        "sport": "swimming"
      },
      "geometry": {
        "type": "Point",
        "coordinates": [
          7.1582807,
          46.621278
        ]
      },
      "id": "node/2971646279"
    },
    {
      "type": "Feature",
      "properties": {
        "@id": "node/3008686174",
        "access": "yes",
        "bath:open_air": "yes",
        "description": "Das Freibad von Waldstatt AR ",
        "fee": "yes",
        "leisure": "sports_centre",
        "name": "Schwimmbad Waldstatt",
        "shower": "yes",
        "sport": "swimming",
        "website": "https://www.waldstatt.ch/unser-dorf/freizeit-sportanlagen/schwimmbad.html/295"
      },
      "geometry": {
        "type": "Point",
        "coordinates": [
          9.2809147,
          47.3540911
        ]
      },
      "id": "node/3008686174"
    },
    {
      "type": "Feature",
      "properties": {
        "@id": "node/3009097815",
        "sport": "swimming"
      },
      "geometry": {
        "type": "Point",
        "coordinates": [
          8.8897198,
          47.65446
        ]
      },
      "id": "node/3009097815"
    },
    {
      "type": "Feature",
      "properties": {
        "@id": "node/3009127456",
        "sport": "swimming"
      },
      "geometry": {
        "type": "Point",
        "coordinates": [
          8.7614793,
          47.6887271
        ]
      },
      "id": "node/3009127456"
    },
    {
      "type": "Feature",
      "properties": {
        "@id": "node/3030544972",
        "name": "Plage de Saint-Gingolph",
        "source": "data.gouv.fr:Le ministère des droits des femmes, de la ville, de la jeunesse et des sports - 2014",
        "sport": "swimming"
      },
      "geometry": {
        "type": "Point",
        "coordinates": [
          6.7909482,
          46.3929588
        ]
      },
      "id": "node/3030544972"
    },
    {
      "type": "Feature",
      "properties": {
        "@id": "node/3030596368",
        "name": "Plage de la Meillerie",
        "source": "data.gouv.fr:Le ministère des droits des femmes, de la ville, de la jeunesse et des sports - 2014",
        "sport": "swimming"
      },
      "geometry": {
        "type": "Point",
        "coordinates": [
          6.71525,
          46.40761
        ]
      },
      "id": "node/3030596368"
    },
    {
      "type": "Feature",
      "properties": {
        "@id": "node/3043051611",
        "sport": "swimming"
      },
      "geometry": {
        "type": "Point",
        "coordinates": [
          9.1984809,
          45.9706704
        ]
      },
      "id": "node/3043051611"
    },
    {
      "type": "Feature",
      "properties": {
        "@id": "node/3043151410",
        "sport": "swimming"
      },
      "geometry": {
        "type": "Point",
        "coordinates": [
          9.1871734,
          45.9667764
        ]
      },
      "id": "node/3043151410"
    },
    {
      "type": "Feature",
      "properties": {
        "@id": "node/3055441633",
        "access": "yes",
        "indoor": "yes",
        "leisure": "swimming_pool",
        "length": "25",
        "level": "-1",
        "lit": "yes",
        "location": "indoor",
        "name": "Hallenbad Spreitenbach",
        "operator": "Gemeinde Spreitenbach",
        "sport": "swimming",
        "swimming_pool": "indoor"
      },
      "geometry": {
        "type": "Point",
        "coordinates": [
          8.3673895,
          47.4215019
        ]
      },
      "id": "node/3055441633"
    },
    {
      "type": "Feature",
      "properties": {
        "@id": "node/3093993548",
        "bath:type": "lake",
        "leisure": "sports_centre",
        "name": "Strandbad Rostele",
        "sport": "swimming",
        "wheelchair": "no"
      },
      "geometry": {
        "type": "Point",
        "coordinates": [
          7.163024,
          47.0952616
        ]
      },
      "id": "node/3093993548"
    },
    {
      "type": "Feature",
      "properties": {
        "@id": "node/3094375729",
        "leisure": "swimming_area",
        "name": "Schwaneninsel",
        "opening_hours": "24/7",
        "sport": "swimming"
      },
      "geometry": {
        "type": "Point",
        "coordinates": [
          8.852514,
          47.1998165
        ]
      },
      "id": "node/3094375729"
    },
    {
      "type": "Feature",
      "properties": {
        "@id": "node/3157608955",
        "access": "permissive",
        "covered": "yes",
        "leisure": "swimming_pool",
        "name": "Hallenbad Brühl",
        "sport": "swimming"
      },
      "geometry": {
        "type": "Point",
        "coordinates": [
          7.6985749,
          47.3418203
        ]
      },
      "id": "node/3157608955"
    },
    {
      "type": "Feature",
      "properties": {
        "@id": "node/3171136419",
        "natural": "beach",
        "sport": "swimming"
      },
      "geometry": {
        "type": "Point",
        "coordinates": [
          6.1518184,
          46.2230666
        ]
      },
      "id": "node/3171136419"
    },
    {
      "type": "Feature",
      "properties": {
        "@id": "node/3189256271",
        "description:en": "stainless steel ladder leading down from the platform into the lake",
        "sport": "swimming"
      },
      "geometry": {
        "type": "Point",
        "coordinates": [
          6.9089706,
          46.4319883
        ]
      },
      "id": "node/3189256271"
    },
    {
      "type": "Feature",
      "properties": {
        "@id": "node/3270001176",
        "leisure": "swimming_pool",
        "name": "Piscine de Perrosalle",
        "opening_hours": "We 14:00-21:45; Fr 17:45-21:45; Su 09:00-13:00",
        "sport": "swimming",
        "website": "https://www.ollon.ch/N378/piscine-de-perrosalle.html"
      },
      "geometry": {
        "type": "Point",
        "coordinates": [
          6.9883247,
          46.2927214
        ]
      },
      "id": "node/3270001176"
    },
    {
      "type": "Feature",
      "properties": {
        "@id": "node/3394816042",
        "amenity": "public_bath",
        "bath:open_air": "yes",
        "bath:sand_bath": "yes",
        "bath:type": "lake",
        "fee": "no",
        "name": "Plage de Goncerut",
        "sport": "swimming"
      },
      "geometry": {
        "type": "Point",
        "coordinates": [
          6.7430397,
          46.8056916
        ]
      },
      "id": "node/3394816042"
    },
    {
      "type": "Feature",
      "properties": {
        "@id": "node/3459789235",
        "covered": "yes",
        "leisure": "sports_centre",
        "name": "Hallenbad Amden",
        "sport": "swimming"
      },
      "geometry": {
        "type": "Point",
        "coordinates": [
          9.1414084,
          47.148647
        ]
      },
      "id": "node/3459789235"
    },
    {
      "type": "Feature",
      "properties": {
        "@id": "node/3528438655",
        "leisure": "swimming_area",
        "sport": "swimming"
      },
      "geometry": {
        "type": "Point",
        "coordinates": [
          7.0127533,
          46.9565197
        ]
      },
      "id": "node/3528438655"
    },
    {
      "type": "Feature",
      "properties": {
        "@id": "node/3610801007",
        "sport": "swimming"
      },
      "geometry": {
        "type": "Point",
        "coordinates": [
          6.6805051,
          46.0863564
        ]
      },
      "id": "node/3610801007"
    },